City_ID,City,Country,Date,Lat,Lng,Max Temp,Humidity,Cloudiness,Wind Speed
0,San Patricio,US,2022-03-16 04:35:02,28.017,-97.5169,66.15,55,0,7.31
1,Rikitea,PF,2022-03-16 04:35:02,-23.1203,-134.9692,80.04,76,57,14.16
2,Maningrida,AU,2022-03-16 04:35:02,-12.0667,134.2667,88.72,64,89,7.96
3,Vaini,TO,2022-03-16 04:35:03,-21.2,-175.2,81.73,74,98,4.9
4,Dicabisagan,PH,2022-03-16 04:35:03,17.0818,122.4157,82.67,76,78,4.45
5,Najran,SA,2022-03-16 04:33:12,17.4924,44.1277,68.65,57,1,7.43
6,Rey Bouba,CM,2022-03-16 04:35:04,8.6724,14.1786,74.19,20,3,1.52
7,Coahuayana,MX,2022-03-16 04:35:04,18.7333,-103.6833,69.64,75,0,2.48
8,Namibe,AO,2022-03-16 04:35:05,-15.1961,12.1522,69.53,81,15,1.97
9,Acapulco,MX,2022-03-16 04:33:11,16.8634,-99.8901,76.82,88,0,5.75
10,Bushehr,IR,2022-03-16 04:35:05,28.9684,50.8385,68.09,52,37,21.85
11,New Norfolk,AU,2022-03-16 04:35:06,-42.7826,147.0587,72.9,57,90,1.01
12,Rawson,AR,2022-03-16 04:30:51,-43.3002,-65.1023,68.0,55,0,6.89
13,Marau,BR,2022-03-16 04:35:06,-28.4492,-52.2,65.14,96,94,8.84
14,Thompson,CA,2022-03-16 04:35:07,55.7435,-97.8558,-2.04,78,0,0.0
15,Kodiak,US,2022-03-16 04:35:07,57.79,-152.4072,36.91,87,100,9.22
16,Port Alfred,ZA,2022-03-16 04:35:07,-33.5906,26.891,65.16,82,77,3.33
17,Gejiu,CN,2022-03-16 04:35:08,23.306,103.1635,65.44,57,60,8.19
18,Jamestown,US,2022-03-16 04:35:08,42.097,-79.2353,40.64,65,75,4.61
19,Sao Gabriel Da Cachoeira,BR,2022-03-16 04:35:09,-0.1303,-67.0892,72.0,99,97,1.72
20,Takoradi,GH,2022-03-16 04:35:09,4.8845,-1.7554,79.34,85,100,5.23
21,Bluff,NZ,2022-03-16 04:35:09,-46.6,168.3333,59.81,65,85,18.92
22,Busselton,AU,2022-03-16 04:35:10,-33.65,115.3333,73.33,65,91,14.97
23,Geraldton,AU,2022-03-16 04:31:21,-28.7667,114.6,81.01,54,1,16.11
24,Le Pont-De-Claix,FR,2022-03-16 04:35:10,45.1244,5.7064,49.48,80,3,4.68
25,Mareeba,AU,2022-03-16 04:35:11,-17.0,145.4333,75.47,93,85,6.33
26,Bafq,IR,2022-03-16 04:35:11,31.6128,55.4107,76.12,16,1,16.08
27,Yar-Sale,RU,2022-03-16 04:30:53,66.8333,70.8333,21.4,95,100,14.94
28,Copiapo,CL,2022-03-16 04:35:11,-27.3667,-70.3333,66.52,71,29,0.51
29,Kohima,IN,2022-03-16 04:35:12,25.6667,94.1167,70.57,18,0,4.79
30,Pacific Grove,US,2022-03-16 04:33:05,36.6177,-121.9166,57.54,91,100,4.61
31,Bosaso,SO,2022-03-16 04:35:12,11.2842,49.1816,76.98,78,0,9.22
32,Pevek,RU,2022-03-16 04:35:13,69.7008,170.3133,-13.41,96,36,2.93
33,Gladstone,AU,2022-03-16 04:35:13,-23.85,151.25,81.79,57,75,11.5
34,Ibra,OM,2022-03-16 04:35:14,22.6906,58.5334,82.85,19,1,3.76
35,Qaanaaq,GL,2022-03-16 04:35:14,77.484,-69.3632,-5.76,97,100,4.92
36,Hailar,CN,2022-03-16 04:35:15,49.2,119.7,8.29,68,2,16.64
37,Broome,US,2022-03-16 04:35:15,42.2506,-75.833,43.99,73,100,5.75
38,Kungurtug,RU,2022-03-16 04:35:15,50.5994,97.5228,16.12,71,53,2.15
39,Rio Gallegos,AR,2022-03-16 04:35:16,-51.6226,-69.2181,57.25,58,20,11.5
40,Punta Arenas,CL,2022-03-16 04:30:41,-53.15,-70.9167,50.11,66,40,24.16
41,Hithadhoo,MV,2022-03-16 04:33:31,-0.6,73.0833,83.7,72,98,13.18
42,Sistranda,NO,2022-03-16 04:35:16,63.7256,8.834,37.36,70,4,13.6
43,Lompoc,US,2022-03-16 04:33:50,34.6391,-120.4579,56.59,87,100,18.99
44,Hobart,AU,2022-03-16 04:35:17,-42.8794,147.3294,73.26,69,75,19.57
45,Hobyo,SO,2022-03-16 04:35:17,5.3505,48.5268,80.85,65,16,17.31
46,Puerto Ayora,EC,2022-03-16 04:36:18,-0.7393,-90.3518,75.54,95,56,1.32
47,Atuona,PF,2022-03-16 04:36:18,-9.8,-139.0333,78.85,71,85,14.56
48,Albany,US,2022-03-16 04:35:55,42.6001,-73.9662,38.68,90,100,3.6
49,Christchurch,NZ,2022-03-16 04:35:09,-43.5333,172.6333,60.94,71,100,13.8
50,Cap-Aux-Meules,CA,2022-03-16 04:36:19,47.3821,-61.8597,17.62,86,72,1.14
51,Castro,BR,2022-03-16 04:36:19,-24.7911,-50.0119,63.86,99,99,5.03
52,Atambua,ID,2022-03-16 04:36:20,-9.1061,124.8925,83.98,66,17,0.85
53,Ribeira Grande,PT,2022-03-16 04:36:20,38.5167,-28.7,56.89,61,53,5.59
54,Chifeng,CN,2022-03-16 04:36:20,42.2683,118.9636,33.22,27,59,16.28
55,Kedrovyy,RU,2022-03-16 04:36:21,56.1667,91.8167,10.87,79,24,3.74
56,Chuy,UY,2022-03-16 04:36:21,-33.6971,-53.4616,62.08,80,1,5.88
57,Vao,NC,2022-03-16 04:36:21,-22.6667,167.4833,80.89,80,90,12.33
58,Gaoual,GN,2022-03-16 04:36:22,11.75,-13.2,71.28,70,65,0.94
59,Inhambane,MZ,2022-03-16 04:36:22,-23.865,35.3833,78.78,89,40,6.91
60,Coihaique,CL,2022-03-16 04:34:12,-45.5752,-72.0662,57.81,71,0,3.44
61,Constitucion,CL,2022-03-16 04:31:27,-35.3333,-72.4167,58.42,95,63,2.86
62,Laguna,US,2022-03-16 04:36:23,38.421,-121.4238,61.09,81,20,6.91
63,Bowling Green,US,2022-03-16 04:35:57,36.9903,-86.4436,56.14,74,0,0.0
64,Teguise,ES,2022-03-16 04:36:24,29.0605,-13.564,57.42,77,44,16.11
65,Ancud,CL,2022-03-16 04:36:24,-41.8697,-73.8203,58.23,96,14,4.29
66,Mahebourg,MU,2022-03-16 04:36:24,-20.4081,57.7,83.25,100,75,5.75
67,Cherskiy,RU,2022-03-16 04:36:25,68.75,161.3,0.63,92,100,7.36
68,Ushuaia,AR,2022-03-16 04:36:25,-54.8,-68.3,40.66,100,75,3.44
69,Porto Nacional,BR,2022-03-16 04:36:26,-10.7081,-48.4172,75.2,97,100,2.15
70,Hilo,US,2022-03-16 04:32:13,19.7297,-155.09,74.62,96,100,8.01
71,Chara,RU,2022-03-16 04:36:26,56.9064,118.2631,-4.25,62,7,2.44
72,Riyadh,SA,2022-03-16 04:36:26,24.6877,46.7219,57.34,29,0,19.69
73,Chapais,CA,2022-03-16 04:36:27,49.7834,-74.8492,19.18,95,100,9.26
74,Husavik,IS,2022-03-16 04:36:27,66.0449,-17.3389,28.62,75,80,15.73
75,Bandarbeyla,SO,2022-03-16 04:36:28,9.4942,50.8122,78.49,68,61,8.84
76,Kapaa,US,2022-03-16 04:36:28,22.0752,-159.319,78.78,71,100,9.22
77,Nortelandia,BR,2022-03-16 04:36:29,-14.4547,-56.8028,70.81,97,100,1.01
78,Pa Sang,TH,2022-03-16 04:36:29,18.5262,98.9394,101.86,26,15,1.99
79,Saint-Philippe,RE,2022-03-16 04:36:29,-21.3585,55.7679,81.99,84,87,8.1
80,Mataura,NZ,2022-03-16 04:36:30,-46.1927,168.8643,59.49,63,97,7.4
81,Ust-Uda,RU,2022-03-16 04:36:30,54.1742,103.0304,9.61,82,72,4.09
82,Hermanus,ZA,2022-03-16 04:36:31,-34.4187,19.2345,64.09,79,19,8.48
83,Barrow,US,2022-03-16 04:36:31,71.2906,-156.7887,1.42,71,100,10.36
84,Klaksvik,FO,2022-03-16 04:36:32,62.2266,-6.589,41.92,63,56,19.44
85,Glendive,US,2022-03-16 04:36:32,47.1053,-104.7125,49.17,70,0,8.05
86,Annau,TM,2022-03-16 04:36:32,37.8876,58.516,44.1,100,100,4.61
87,Victoria,HK,2022-03-16 04:35:58,22.2855,114.1577,77.38,74,100,11.99
88,Egvekinot,RU,2022-03-16 04:36:33,66.3167,-179.1667,-4.27,83,0,5.19
89,Saint-Georges,GD,2022-03-16 04:36:33,12.0564,-61.7485,78.48,78,20,23.02
90,Sao Joao Da Barra,BR,2022-03-16 04:36:34,-21.6403,-41.0511,77.11,89,0,15.88
91,Grindavik,IS,2022-03-16 04:37:34,63.8424,-22.4338,30.67,80,75,20.71
92,Stephenville,US,2022-03-16 04:35:05,32.2207,-98.2023,57.16,60,0,0.0
93,Adre,TD,2022-03-16 04:37:35,13.4667,22.2,59.9,18,17,22.91
94,Pori,FI,2022-03-16 04:37:35,61.4833,21.7833,24.87,86,0,5.75
95,Bilma,NE,2022-03-16 04:37:35,18.6853,12.9164,62.56,20,2,9.64
96,Lillooet,CA,2022-03-16 04:37:36,50.6856,-121.942,36.41,92,96,5.14
97,Lebyazhye,RU,2022-03-16 04:37:36,55.2689,66.4947,3.69,97,100,3.36
98,Srednekolymsk,RU,2022-03-16 04:37:37,67.45,153.6833,2.28,84,100,7.74
99,Yatou,CN,2022-03-16 04:37:37,37.15,122.3833,48.67,70,79,16.98
100,Maneadero,MX,2022-03-16 04:37:37,31.7167,-116.5667,56.1,87,92,2.35
101,Avarua,CK,2022-03-16 04:37:38,-21.2078,-159.775,82.45,74,13,4.61
102,Ashqelon,IL,2022-03-16 04:37:38,31.6693,34.5715,40.89,54,96,11.25
103,Shamary,RU,2022-03-16 04:37:38,57.3434,58.2199,11.95,85,43,4.29
104,Puerto Narino,CO,2022-03-16 04:37:39,-3.7703,-70.3831,72.03,99,90,1.36
105,Khatanga,RU,2022-03-16 04:37:39,71.9667,102.5,-5.17,91,42,5.19
106,Camacha,PT,2022-03-16 04:37:40,33.0833,-16.3333,56.62,67,75,27.63
107,Nanortalik,GL,2022-03-16 04:37:40,60.1432,-45.2371,3.9,83,100,10.13
108,Bulungu,CD,2022-03-16 04:37:40,-4.55,18.6,69.04,98,95,2.21
109,Mar Del Plata,AR,2022-03-16 04:33:59,-38.0023,-57.5575,64.87,82,0,8.99
110,Lom,BG,2022-03-16 04:37:41,43.8139,23.2361,42.82,53,100,1.7
111,Sambava,MG,2022-03-16 04:37:41,-14.2667,50.1667,77.99,86,100,3.31
112,Aswan,EG,2022-03-16 04:37:42,24.0934,32.907,47.5,46,0,6.91
113,Allapalli,IN,2022-03-16 04:37:42,19.4167,80.0667,100.11,14,100,1.92
114,Saint-Augustin,CA,2022-03-16 04:37:43,51.226,-58.6502,-11.33,89,2,6.82
115,Butaritari,KI,2022-03-16 04:37:43,3.0707,172.7902,81.72,79,98,17.83
116,Cape Town,ZA,2022-03-16 04:37:43,-33.9258,18.4232,64.81,75,0,18.41
117,Faanui,PF,2022-03-16 04:37:44,-16.4833,-151.75,82.17,70,60,8.84
118,Vardo,NO,2022-03-16 04:37:44,70.3705,31.1107,29.46,80,6,25.1
119,Guerrero Negro,MX,2022-03-16 04:37:44,27.9769,-114.0611,60.03,86,42,9.73
120,Tahe,CN,2022-03-16 04:37:45,52.3333,124.7333,13.37,68,100,14.43
121,Bundaberg,AU,2022-03-16 04:37:45,-24.85,152.35,79.09,65,40,13.8
122,Liverpool,GB,2022-03-16 04:37:12,53.4106,-2.9779,47.82,84,100,4.61
123,Tasiilaq,GL,2022-03-16 04:37:46,65.6145,-37.6368,17.76,97,98,6.33
124,Dikson,RU,2022-03-16 04:37:46,73.5069,80.5464,14.22,97,96,1.9
125,Kaputa,ZM,2022-03-16 04:37:47,-8.4689,29.6619,68.65,89,96,2.84
126,Padang,ID,2022-03-16 04:37:47,-0.9492,100.3543,87.85,59,80,5.7
127,Vestmanna,FO,2022-03-16 04:37:47,62.1564,-7.1664,40.12,65,75,14.97
128,Maniitsoq,GL,2022-03-16 04:37:48,65.4167,-52.9,-4.7,98,100,6.38
129,Lata,PT,2022-03-16 04:37:48,40.1629,-8.3327,54.91,79,57,3.94
130,San Rafael,AR,2022-03-16 04:37:49,-34.6177,-68.3301,70.81,38,8,3.69
131,Valday,RU,2022-03-16 04:37:49,57.9747,33.2525,17.65,93,6,5.26
132,Samagaltay,RU,2022-03-16 04:37:49,50.6022,95.0047,18.36,69,97,2.8
133,Chiredzi,ZW,2022-03-16 04:37:50,-21.05,31.6667,68.65,93,100,7.31
134,Itaqui,BR,2022-03-16 04:37:50,-29.1253,-56.5531,65.08,75,0,7.96
135,Bredasdorp,ZA,2022-03-16 04:37:51,-34.5322,20.0403,51.12,93,60,2.3
136,Sholapur,IN,2022-03-16 04:37:51,17.6833,75.9167,91.81,14,51,3.38
137,Carnarvon,AU,2022-03-16 04:37:51,-24.8667,113.6333,84.27,58,45,21.85
138,Tuktoyaktuk,CA,2022-03-16 04:38:52,69.4541,-133.0374,-16.6,76,0,11.5
139,Honiara,SB,2022-03-16 04:38:52,-9.4333,159.95,83.93,67,99,3.02
140,Baruun-Urt,MN,2022-03-16 04:38:54,46.6806,113.2792,17.67,19,0,9.17
141,Oriximina,BR,2022-03-16 04:38:54,-1.7656,-55.8661,70.99,94,99,2.1
142,Gamba,GA,2022-03-16 04:38:54,-2.65,10.0,74.14,93,100,3.02
143,Sebeta,ET,2022-03-16 04:38:55,8.9167,38.6167,60.19,42,19,2.91
144,Andilamena,MG,2022-03-16 04:38:55,-17.0167,48.5833,69.94,88,100,4.59
145,Roald,NO,2022-03-16 04:38:56,62.5833,6.1333,46.54,53,100,13.8
146,Ulladulla,AU,2022-03-16 04:38:56,-35.35,150.4667,73.76,84,100,5.75
147,Tazovskiy,RU,2022-03-16 04:38:56,67.4667,78.7,18.14,94,100,8.12
148,Sitka,US,2022-03-16 04:38:57,57.0531,-135.33,42.69,81,100,8.05
149,Upernavik,GL,2022-03-16 04:38:57,72.7868,-56.1549,-10.28,85,100,4.88
150,Inirida,CO,2022-03-16 04:38:58,3.8653,-67.9239,73.9,94,97,0.6
151,Paclolo,PH,2022-03-16 04:38:58,12.3768,121.1735,88.36,62,69,12.68
152,Yellowknife,CA,2022-03-16 04:37:56,62.456,-114.3525,-3.44,71,20,4.61
153,Dwarka,IN,2022-03-16 04:38:59,22.2394,68.9678,81.46,55,58,10.58
154,Bonthe,SL,2022-03-16 04:39:00,7.5264,-12.505,74.44,92,100,3.42
155,Kudahuvadhoo,MV,2022-03-16 04:39:00,2.6708,72.8944,82.69,71,97,10.0
156,Nikolskoye,RU,2022-03-16 04:39:00,59.7035,30.7861,30.87,95,41,4.38
157,Diamantino,BR,2022-03-16 04:39:01,-14.4086,-56.4461,70.79,95,98,1.23
158,Fuling,CN,2022-03-16 04:39:01,29.7022,107.3919,74.68,74,97,2.48
159,Richards Bay,ZA,2022-03-16 04:39:02,-28.783,32.0377,68.29,86,87,6.96
160,Cidreira,BR,2022-03-16 04:39:02,-30.1811,-50.2056,73.8,77,100,13.87
161,Araouane,ML,2022-03-16 04:39:02,18.9048,-3.5265,67.15,31,68,13.85
162,Provideniya,RU,2022-03-16 04:39:03,64.3833,-173.3,12.31,57,0,2.24
163,Waipawa,NZ,2022-03-16 04:39:03,-41.4122,175.5153,55.06,82,88,11.61
164,Seoul,KR,2022-03-16 04:36:13,37.5683,126.9778,61.99,40,0,6.91
165,Mahanoro,MG,2022-03-16 04:39:05,-19.9,48.8,78.04,86,96,2.26
166,Bambanglipuro,ID,2022-03-16 04:39:05,-7.95,110.2833,84.47,75,84,6.31
167,Atar,MR,2022-03-16 04:39:06,20.5169,-13.0499,58.64,35,0,13.31
168,Havelock,US,2022-03-16 04:39:06,34.8791,-76.9013,62.58,85,100,1.81
169,Hofn,IS,2022-03-16 04:39:07,64.2539,-15.2082,37.24,58,96,34.56
170,Mahibadhoo,MV,2022-03-16 04:39:07,3.7833,72.9667,82.63,74,100,9.62
171,Fortuna,US,2022-03-16 04:39:07,40.5982,-124.1573,48.65,91,40,4.61
172,Hamilton,US,2022-03-16 04:37:13,39.1834,-84.5333,52.75,73,0,3.44
173,Kununurra,AU,2022-03-16 04:39:08,-15.7667,128.7333,96.78,49,75,3.44
174,Kavieng,PG,2022-03-16 04:39:08,-2.5744,150.7967,82.4,78,93,11.92
175,Georgetown,MY,2022-03-16 04:36:09,5.4112,100.3354,87.73,78,20,5.99
176,Orje,NO,2022-03-16 04:39:09,59.4802,11.6602,35.13,97,30,4.25
177,Evensk,RU,2022-03-16 04:39:09,61.95,159.2333,6.58,90,19,0.43
178,Faya,SA,2022-03-16 04:39:10,18.3851,42.4509,55.51,75,35,3.83
179,Lebu,CL,2022-03-16 04:40:10,-37.6167,-73.65,56.79,93,9,11.74
180,Juazeiro,BR,2022-03-16 04:39:10,-9.4117,-40.4986,77.18,83,75,6.91
181,Buala,SB,2022-03-16 04:40:11,-8.145,159.5921,83.8,70,71,2.44
182,Petrozavodsk,RU,2022-03-16 04:39:45,61.7849,34.3469,11.66,85,100,0.0
183,Cuamba,MZ,2022-03-16 04:40:11,-14.8031,36.5372,70.92,93,100,2.98
184,Hasaki,JP,2022-03-16 04:40:12,35.7333,140.8333,64.8,67,17,8.01
185,Kavaratti,IN,2022-03-16 04:40:12,10.5669,72.642,83.57,69,84,8.12
186,Port Elizabeth,ZA,2022-03-16 04:40:12,-33.918,25.5701,59.29,94,100,0.0
187,Bengkulu,ID,2022-03-16 04:40:13,-3.8004,102.2655,86.32,61,99,7.0
188,Opportunity,US,2022-03-16 04:40:13,47.6499,-117.2399,46.09,56,0,9.22
189,Pathein,MM,2022-03-16 04:40:14,16.7833,94.7333,97.52,26,23,10.58
190,Port Blair,IN,2022-03-16 04:40:14,11.6667,92.75,86.58,65,100,9.86
191,Tela,HN,2022-03-16 04:40:14,15.7833,-87.45,75.87,89,45,6.87
192,Karratha,AU,2022-03-16 04:38:10,-20.7377,116.8463,105.58,20,85,8.43
193,Lewisporte,CA,2022-03-16 04:40:15,49.2499,-55.0482,20.91,59,45,11.16
194,Macia,MZ,2022-03-16 04:40:15,-25.0269,33.0989,70.41,87,100,9.86
195,Byron Bay,AU,2022-03-16 04:36:23,-28.65,153.6167,78.69,81,99,10.22
196,Saskylakh,RU,2022-03-16 04:40:16,71.9167,114.0833,-8.5,93,95,5.68
197,Bara,NG,2022-03-16 04:40:16,10.3744,10.7288,71.15,21,27,8.05
198,Clyde River,CA,2022-03-16 04:40:17,70.4692,-68.5914,-21.77,76,99,2.3
199,Promyshlennaya,RU,2022-03-16 04:40:17,54.9159,85.6385,13.15,85,91,3.44
200,Cabo San Lucas,MX,2022-03-16 04:39:30,22.8909,-109.9124,70.9,65,2,11.68
201,Kiunga,PG,2022-03-16 04:40:18,-6.1219,141.2906,96.75,43,46,2.35
202,Beringovskiy,RU,2022-03-16 04:40:18,63.05,179.3167,-2.78,96,9,2.68
203,Noumea,NC,2022-03-16 04:40:19,-22.2763,166.4572,88.0,99,72,4.27
204,Dongsheng,CN,2022-03-16 04:40:19,39.8161,109.9776,45.18,26,100,12.68
205,Katsuura,JP,2022-03-16 04:40:19,35.1333,140.3,62.46,66,30,5.79
206,Tigil,RU,2022-03-16 04:40:20,57.8,158.6667,18.93,86,61,5.17
207,Orange Cove,US,2022-03-16 04:40:20,36.6244,-119.3137,62.26,86,95,2.21
208,Akdepe,TM,2022-03-16 04:40:21,42.0551,59.3788,39.29,49,100,12.77
209,Dingle,PH,2022-03-16 04:40:21,10.9995,122.6711,90.52,57,40,9.71
210,Limoux,FR,2022-03-16 04:40:21,42.9167,2.1667,51.51,75,100,9.93
211,Ballina,AU,2022-03-16 04:40:22,-28.8667,153.5667,78.76,81,40,11.5
212,Aklavik,CA,2022-03-16 04:40:22,68.2191,-135.0107,-26.95,98,58,1.83
213,Quatre Cocos,MU,2022-03-16 04:40:23,-20.2078,57.7625,82.09,76,57,3.6
214,Moyo,UG,2022-03-16 04:40:23,3.6609,31.7247,74.35,53,89,2.98
215,Port Hawkesbury,CA,2022-03-16 04:40:23,45.6169,-61.3485,25.59,86,0,0.0
216,Moranbah,AU,2022-03-16 04:40:24,-22.0016,148.0466,86.43,39,100,15.14
217,Lazaro Cardenas,MX,2022-03-16 04:40:24,17.9583,-102.2,73.2,82,0,2.42
218,Ponta Do Sol,PT,2022-03-16 04:40:24,32.6667,-17.1,60.06,59,13,9.75
219,Independencia,BR,2022-03-16 04:40:25,-5.3964,-40.3086,70.57,97,99,2.95
220,Yeppoon,AU,2022-03-16 04:40:25,-23.1333,150.7333,80.38,69,100,16.82
221,Jesup,US,2022-03-16 04:40:26,31.6074,-81.8854,61.72,82,100,0.0
222,Vostok,RU,2022-03-16 04:40:26,46.4856,135.8833,32.14,74,100,2.59
223,Salalah,OM,2022-03-16 04:40:26,17.0151,54.0924,75.29,31,0,4.61
224,Abnub,EG,2022-03-16 04:40:27,27.2696,31.1511,43.02,54,0,8.63
225,Yulara,AU,2022-03-16 04:41:27,-25.2406,130.9889,103.84,15,75,16.11
226,Papara,BR,2022-03-16 04:41:27,-3.9839,-38.7273,75.6,98,65,2.62
227,Udalguri,IN,2022-03-16 04:41:28,26.7667,92.1333,89.67,18,0,4.61
228,Chokurdakh,RU,2022-03-16 04:41:28,70.6333,147.9167,-8.36,90,96,13.56
229,East London,ZA,2022-03-16 04:41:29,-33.0153,27.9116,63.54,94,0,8.05
230,Gasa,PS,2022-03-16 04:41:29,31.5,34.4667,50.68,54,98,9.35
231,Lagoa,PT,2022-03-16 04:37:23,39.05,-27.9833,55.51,57,93,6.35
232,Maridi,SS,2022-03-16 04:41:29,4.9158,29.4742,73.62,30,98,5.39
233,Eureka,US,2022-03-16 04:41:30,40.8021,-124.1637,50.74,83,100,4.38
234,Khani,GE,2022-03-16 04:41:30,41.9563,42.9566,24.37,79,100,0.54
235,Albury,AU,2022-03-16 04:39:48,-36.0833,146.9167,75.25,81,40,9.22
236,Zolotonosha,UA,2022-03-16 04:41:31,49.6689,32.0377,28.13,76,6,8.75
237,Port Lincoln,AU,2022-03-16 04:41:31,-34.7333,135.8667,70.47,76,100,14.52
238,Torbay,CA,2022-03-16 04:41:32,47.6666,-52.7314,25.57,64,20,31.07
239,Saint George,US,2022-03-16 04:37:08,37.1041,-113.5841,63.95,22,0,1.01
240,Wattwil,CH,2022-03-16 04:41:32,47.3023,9.0876,47.84,75,100,3.91
241,San Juan,AR,2022-03-16 04:41:32,-31.5375,-68.5364,75.49,32,0,1.99
242,Redmond,US,2022-03-16 04:41:01,47.674,-122.1215,47.86,81,98,5.01
243,Lavrentiya,RU,2022-03-16 04:41:33,65.5833,-171.0,-0.8,82,11,7.38
244,Cordoba,AR,2022-03-16 04:37:48,-31.4135,-64.1811,67.19,94,0,6.91
245,Chengde,CN,2022-03-16 04:41:34,40.9725,117.9361,47.79,33,97,2.77
246,Vetluzhskiy,RU,2022-03-16 04:41:34,58.3902,45.4654,14.2,87,57,4.43
247,Chateaubelair,VC,2022-03-16 04:41:34,13.2833,-61.25,76.01,79,25,17.07
248,Sabha,LY,2022-03-16 04:41:35,27.0377,14.4283,48.33,37,0,12.62
249,Arraial Do Cabo,BR,2022-03-16 04:41:35,-22.9661,-42.0278,76.66,91,7,11.72
250,Olinda,BR,2022-03-16 04:41:36,-8.0089,-34.8553,82.13,78,40,6.91
251,Ust-Nera,RU,2022-03-16 04:41:36,64.5667,143.2,5.59,84,69,2.98
252,Luanda,AO,2022-03-16 04:41:36,-8.8368,13.2343,76.14,81,94,5.08
253,Abashiri,JP,2022-03-16 04:41:37,44.0213,144.2697,34.09,93,75,5.75
254,Oudtshoorn,ZA,2022-03-16 04:41:37,-33.5907,22.2014,57.56,75,29,1.83
255,Bambous Virieux,MU,2022-03-16 04:41:37,-20.3428,57.7575,82.22,100,75,5.75
256,Bayshore Gardens,US,2022-03-16 04:41:38,27.4253,-82.5904,68.07,78,75,3.44
257,Alyangula,AU,2022-03-16 04:41:38,-13.8483,136.4192,91.27,66,75,11.5
258,Bani,DO,2022-03-16 04:41:39,18.2833,-70.3333,74.86,78,1,11.39
259,Horia,RO,2022-03-16 04:41:39,45.0167,28.45,27.63,62,75,1.5
260,Vitim,RU,2022-03-16 04:41:39,59.4511,112.5578,10.83,82,100,10.25
261,Ilulissat,GL,2022-03-16 04:41:40,69.2167,-51.1,-2.18,60,100,14.97
262,Umm Kaddadah,SD,2022-03-16 04:41:40,13.6017,26.6876,56.71,21,4,21.83
263,Norman Wells,CA,2022-03-16 04:41:40,65.282,-126.8329,-7.56,64,75,4.61
264,Kano,NG,2022-03-16 04:40:07,12.0001,8.5167,73.29,25,19,9.22
265,Narsaq,GL,2022-03-16 04:41:41,60.9167,-46.05,-0.18,68,91,7.78
266,Sarangani,PH,2022-03-16 04:41:42,5.4033,125.4636,83.91,77,61,17.29
267,Shenzhen,CN,2022-03-16 04:41:42,22.5455,114.0683,79.99,83,99,7.94
268,Vung Tau,VN,2022-03-16 04:37:53,10.346,107.0843,82.94,68,74,15.77
269,Kabalo,CD,2022-03-16 04:41:43,-6.05,26.9167,69.87,96,85,2.48
270,Aripuana,BR,2022-03-16 04:41:43,-9.1667,-60.6333,70.5,99,67,1.36
271,Zhuhai,CN,2022-03-16 04:42:44,22.2769,113.5678,81.86,83,40,5.75
272,Dolores,AR,2022-03-16 04:42:44,-36.3132,-57.6792,62.74,95,1,7.81
273,Zhezkazgan,KZ,2022-03-16 04:42:44,47.8043,67.7144,12.18,85,20,15.66
274,Ahipara,NZ,2022-03-16 04:42:45,-35.1667,173.1667,68.31,81,100,5.59
275,Vestmannaeyjar,IS,2022-03-16 04:42:45,63.4427,-20.2734,33.85,74,100,31.61
276,Lengnau,CH,2022-03-16 04:42:45,47.1838,7.3737,44.33,94,100,1.01
277,Rocha,UY,2022-03-16 04:42:46,-34.4833,-54.3333,60.67,82,7,5.86
278,Kahului,US,2022-03-16 04:42:46,20.8947,-156.47,80.62,75,40,8.99
279,Dunedin,NZ,2022-03-16 04:42:47,-45.8742,170.5036,54.81,66,100,5.01
280,Burnie,AU,2022-03-16 04:42:47,-41.0667,145.9167,63.05,96,100,13.0
281,Trorod,DK,2022-03-16 04:42:47,55.8395,12.5443,37.22,96,0,3.11
282,Barcelos,PT,2022-03-16 04:42:48,41.5388,-8.6151,56.68,94,75,5.91
283,Svetlogorsk,BY,2022-03-16 04:42:48,52.6333,29.7333,27.5,72,17,9.15
284,Avera,US,2022-03-16 04:42:49,33.194,-82.5271,61.38,75,100,10.33
285,Amahai,ID,2022-03-16 04:42:49,-3.3333,128.9167,83.82,80,98,4.52
286,Belz,FR,2022-03-16 04:42:49,47.6751,-3.168,53.22,89,24,5.01
287,Vanimo,PG,2022-03-16 04:42:50,-2.6741,141.3028,85.33,70,88,9.55
288,Ukiah,US,2022-03-16 04:42:50,39.1502,-123.2078,53.49,77,0,9.22
289,Olafsvik,IS,2022-03-16 04:42:51,64.8945,-23.7142,31.06,64,100,30.62
290,Esperance,AU,2022-03-16 04:42:51,-33.8667,121.9,85.84,55,98,15.26
291,Vila Velha,BR,2022-03-16 04:42:10,-20.3297,-40.2925,76.95,90,20,3.44
292,Helong,CN,2022-03-16 04:42:52,42.5397,128.9972,35.74,67,87,12.39
293,Dale,US,2022-03-16 04:42:30,38.1689,-86.99,50.86,71,0,4.61
294,Ternate,ID,2022-03-16 04:42:52,0.8,127.4,85.05,72,82,5.21
295,Guaraniacu,BR,2022-03-16 04:42:53,-25.1008,-52.8781,61.21,98,4,3.47
296,Mehamn,NO,2022-03-16 04:42:53,71.0357,27.8492,31.95,74,0,25.32
297,Tiarei,PF,2022-03-16 04:42:53,-17.5333,-149.3333,84.0,72,93,3.96
298,Ron Phibun,TH,2022-03-16 04:42:54,8.1791,99.8542,99.14,51,100,5.46
299,Humberto De Campos,BR,2022-03-16 04:42:54,-2.5983,-43.4611,73.53,97,100,2.91
300,Rameswaram,IN,2022-03-16 04:42:55,9.2833,79.3,81.1,65,94,0.74
301,Stornoway,GB,2022-03-16 04:42:55,58.2093,-6.3865,34.03,92,78,4.61
302,Nabire,ID,2022-03-16 04:42:55,-3.3667,135.4833,85.17,69,100,6.6
303,Mbumi,TZ,2022-03-16 04:42:56,-7.9058,39.2105,79.45,81,96,3.11
304,Aras,ES,2022-03-16 04:42:56,42.5617,-2.356,48.63,87,100,5.75
305,Svetlyy,RU,2022-03-16 04:42:57,54.675,20.1347,32.05,72,82,4.52
306,Namatanai,PG,2022-03-16 04:42:57,-3.6667,152.4333,82.27,74,97,5.91
307,Seminole,US,2022-03-16 04:42:57,28.7086,-81.2081,71.28,94,100,4.61
308,Znamenskoye,RU,2022-03-16 04:42:58,57.1281,73.8282,15.26,88,94,4.68
309,Leningradskiy,RU,2022-03-16 04:42:58,69.3833,178.4167,-9.15,94,3,4.72
310,Marsh Harbour,BS,2022-03-16 04:42:59,26.5412,-77.0636,74.41,87,0,11.81
311,Walvis Bay,NA,2022-03-16 04:42:59,-22.9575,14.5053,60.1,94,5,4.61
312,Bijar,IR,2022-03-16 04:42:59,35.8668,47.6051,28.94,34,36,9.46
313,Obosi,NG,2022-03-16 04:43:00,6.0951,6.8177,76.69,91,86,2.8
314,San Quintin,MX,2022-03-16 04:43:00,30.4833,-115.95,58.96,87,25,8.66
315,Limbang,MY,2022-03-16 04:43:00,4.75,115.0,86.11,61,36,5.61
316,Zalantun,CN,2022-03-16 04:44:01,48.0,122.7167,19.49,39,1,23.15
317,Dabat,ET,2022-03-16 04:44:01,12.9842,37.765,59.49,50,27,2.98
318,Nagato,JP,2022-03-16 04:44:02,34.3833,131.2,61.68,60,0,11.56
319,Xiaoweizhai,CN,2022-03-16 04:44:02,26.1903,107.5125,67.55,91,100,7.49
320,Altay,CN,2022-03-16 04:44:03,47.8667,88.1167,27.97,66,9,2.59
321,Amazar,RU,2022-03-16 04:44:03,53.858,120.875,9.25,62,100,13.4
322,Sarangarh,IN,2022-03-16 04:44:03,21.6,83.0833,94.23,16,76,4.9
323,Virpur,IN,2022-03-16 04:44:04,23.1833,73.4833,95.76,16,11,12.93
324,Goalpara,IN,2022-03-16 04:44:04,26.1667,90.6167,91.87,17,0,6.58
325,Havre-Saint-Pierre,CA,2022-03-16 04:44:05,50.2334,-63.5986,15.8,43,0,12.66
326,Hudson Bay,CA,2022-03-16 04:44:05,52.85,-102.3842,24.94,99,100,4.05
327,Bethel,US,2022-03-16 04:44:06,41.3712,-73.414,50.36,88,40,0.0
328,Nome,US,2022-03-16 04:42:32,64.5011,-165.4064,6.87,61,0,10.36
329,Marolambo,MG,2022-03-16 04:44:06,-20.05,48.1167,74.43,89,91,0.56
330,Guhagar,IN,2022-03-16 04:44:06,17.4842,73.1929,93.34,28,87,5.95
331,Marsa Matruh,EG,2022-03-16 04:44:07,31.3525,27.2453,55.6,50,40,9.22
332,Broken Hill,AU,2022-03-16 04:40:50,-31.95,141.4333,80.31,54,62,6.91
333,Buchanan,LR,2022-03-16 04:44:08,5.8808,-10.0467,76.96,87,73,1.72
334,Tocopilla,CL,2022-03-16 04:44:08,-22.092,-70.1979,69.84,79,35,4.07
335,Goba,ET,2022-03-16 04:44:08,7.0167,39.9833,57.13,52,92,2.51
336,Ampanihy,MG,2022-03-16 04:44:09,-24.7,44.75,79.2,63,7,2.33
337,Luderitz,NA,2022-03-16 04:44:09,-26.6481,15.1594,60.93,64,0,16.78
338,Retz,AT,2022-03-16 04:44:09,48.7494,15.9624,48.56,80,97,19.01
339,Flinders,AU,2022-03-16 04:44:10,-34.5833,150.8552,73.06,84,99,5.99
340,Bowen,AU,2022-03-16 04:44:10,-20.0167,148.2333,81.43,71,100,16.89
341,Buckeye,US,2022-03-16 04:42:00,33.3703,-112.5838,74.8,19,0,0.0
342,Kalmunai,LK,2022-03-16 04:44:11,7.4167,81.8167,79.59,79,100,2.35
343,Bichena,ET,2022-03-16 04:44:11,10.45,38.2,60.21,52,87,4.03
344,Campbell River,CA,2022-03-16 04:44:11,50.0163,-125.2446,45.93,100,75,4.61
345,Mogzon,RU,2022-03-16 04:44:12,51.7435,111.9606,11.12,60,64,10.51
346,Natal,BR,2022-03-16 04:43:30,-5.795,-35.2094,79.02,94,40,2.3
347,Te Anau,NZ,2022-03-16 04:44:12,-45.4167,167.7167,63.82,55,22,3.4
348,Aguimes,ES,2022-03-16 04:44:13,27.9054,-15.4461,57.83,67,40,11.99
349,Hirara,JP,2022-03-16 04:44:13,24.8,125.2833,78.66,61,75,13.8
350,San Cristobal,VE,2022-03-16 04:44:13,7.7669,-72.225,68.18,86,81,0.56
351,Itirucu,BR,2022-03-16 04:44:14,-13.5317,-40.1503,65.77,95,80,2.64
352,Domoni,KM,2022-03-16 04:44:14,-12.2569,44.5319,80.98,81,94,5.26
353,Matagami,CA,2022-03-16 04:44:15,49.7502,-77.6328,26.71,93,100,8.05
354,Isangel,VU,2022-03-16 04:44:15,-19.55,169.2667,84.96,72,99,4.16
355,Churapcha,RU,2022-03-16 04:44:16,62.0025,132.4325,7.0,78,100,5.82
356,Porto Recanati,IT,2022-03-16 04:44:16,43.4365,13.6613,51.24,83,98,3.27
357,Sisimiut,GL,2022-03-16 04:44:16,66.9395,-53.6735,-8.19,98,100,7.9
358,Ipswich,GB,2022-03-16 04:40:52,52.0592,1.1555,45.86,90,75,6.91
359,Parabel,RU,2022-03-16 04:44:17,58.6978,81.4825,10.49,90,99,7.29
360,Arrecife,ES,2022-03-16 04:44:17,28.963,-13.5477,60.78,77,20,19.57
361,Severo-Kurilsk,RU,2022-03-16 04:45:18,50.6789,156.125,30.83,74,51,10.8
362,Coachella,US,2022-03-16 04:40:46,33.6803,-116.1739,79.07,27,99,3.0
363,Aborlan,PH,2022-03-16 04:45:18,9.4352,118.5492,87.53,65,27,7.96
364,Comodoro Rivadavia,AR,2022-03-16 04:45:19,-45.8667,-67.5,67.86,37,0,35.68
365,Bafata,GW,2022-03-16 04:45:19,12.1667,-14.75,70.02,63,61,1.52
366,Los Llanos De Aridane,ES,2022-03-16 04:45:19,28.6585,-17.9182,58.75,77,0,24.16
367,Morgan City,US,2022-03-16 04:45:20,29.6994,-91.2068,60.8,82,40,0.0
368,Nishihara,JP,2022-03-16 04:42:17,26.1842,127.7558,76.68,73,20,8.05
369,Taltal,CL,2022-03-16 04:45:20,-25.4,-70.4833,66.6,82,58,0.25
370,Cayenne,GF,2022-03-16 04:45:21,4.9333,-52.3333,79.09,1,75,4.0
371,Sahuaripa,MX,2022-03-16 04:45:21,29.05,-109.2333,65.34,16,1,6.44
372,Mantes-La-Ville,FR,2022-03-16 04:45:22,48.9737,1.7025,48.85,92,48,6.11
373,Matay,EG,2022-03-16 04:45:22,28.419,30.7792,45.64,59,1,7.63
374,Kenai,US,2022-03-16 04:45:22,60.5544,-151.2583,29.03,78,100,10.36
375,Grand-Lahou,CI,2022-03-16 04:45:23,5.1367,-5.0242,78.82,91,100,7.36
376,Agua Dulce,MX,2022-03-16 04:45:23,18.1333,-94.1333,73.18,91,17,14.9
377,Airai,TL,2022-03-16 04:45:23,-8.9266,125.4092,72.03,72,37,3.51
378,Savannah Bight,HN,2022-03-16 04:45:24,16.45,-85.85,81.14,74,7,16.91
379,Birjand,IR,2022-03-16 04:45:24,32.8663,59.2211,66.67,24,20,6.91
380,Kosonsoy,UZ,2022-03-16 04:45:25,41.2561,71.5508,45.16,76,100,4.56
381,Inuvik,CA,2022-03-16 04:45:25,68.3499,-133.7218,-12.14,70,40,5.75
382,Neuquen,AR,2022-03-16 04:45:25,-38.9516,-68.0591,64.29,88,0,0.0
383,Conde,BR,2022-03-16 04:45:26,-7.2597,-34.9075,78.26,94,40,4.61
384,Lastoursville,GA,2022-03-16 04:45:26,-0.8143,12.7287,71.91,99,100,1.19
385,Plettenberg Bay,ZA,2022-03-16 04:45:27,-34.0527,23.3716,60.71,78,14,4.63
386,Jaguaribe,BR,2022-03-16 04:45:27,-5.8906,-38.6219,73.63,94,100,0.4
387,Tlaltenango,MX,2022-03-16 04:45:27,19.1667,-98.3333,56.26,71,91,4.68
388,Poum,NC,2022-03-16 04:45:28,-20.2333,164.0167,83.16,78,92,15.12
389,Padrauna,IN,2022-03-16 04:45:28,26.9025,83.9819,88.21,23,5,3.33
390,Shingu,JP,2022-03-16 04:45:28,33.7333,135.9833,72.32,37,0,3.91
391,Sao Filipe,CV,2022-03-16 04:45:29,14.8961,-24.4956,69.24,71,1,12.46
392,Ketchikan,US,2022-03-16 04:45:29,55.3422,-131.6461,43.27,87,100,10.36
393,Jaciara,BR,2022-03-16 04:45:30,-15.9653,-54.9683,69.53,95,75,1.1
394,Villa Carlos Paz,AR,2022-03-16 04:45:30,-31.4241,-64.4978,63.82,59,0,1.99
395,Hudiksvall,SE,2022-03-16 04:45:30,61.729,17.1036,27.59,93,0,4.03
396,Igrim,RU,2022-03-16 04:45:31,63.1906,64.4162,13.86,89,88,6.93
397,Saldanha,ZA,2022-03-16 04:45:31,-33.0117,17.9442,57.25,89,1,15.57
398,Hokitika,NZ,2022-03-16 04:45:32,-42.7167,170.9667,66.67,52,73,7.67
399,Omsukchan,RU,2022-03-16 04:45:32,62.5333,155.8,13.41,87,15,3.2
400,Haines Junction,CA,2022-03-16 04:45:33,60.7522,-137.5108,28.35,69,96,4.61
401,Nikolsk,RU,2022-03-16 04:45:33,53.7189,46.0712,10.63,93,100,13.22
402,Lukovetskiy,RU,2022-03-16 04:45:33,64.2956,41.9211,15.93,95,81,6.33
403,Longyearbyen,SJ,2022-03-16 04:45:34,78.2186,15.6401,40.84,75,75,17.27
404,Fukue,JP,2022-03-16 04:45:34,32.6881,128.8419,66.56,68,0,9.22
405,Chiapilla,MX,2022-03-16 04:45:35,16.5167,-92.7333,75.0,87,18,2.24
406,Kieta,PG,2022-03-16 04:45:35,-6.2167,155.6333,83.52,69,90,4.45
407,Varia,FR,2022-03-16 04:45:35,44.5725,-0.1104,54.48,91,89,10.29
408,Samdrup Jongkhar,BT,2022-03-16 04:45:36,26.9167,91.6167,83.43,22,0,6.58
409,Mitu,CO,2022-03-16 04:46:36,1.1983,-70.1733,72.66,97,100,1.23
410,Fairbanks,US,2022-03-16 04:42:27,64.8378,-147.7164,8.6,52,20,4.61
411,Portland,US,2022-03-16 04:45:57,45.5234,-122.6762,49.62,80,75,5.75
412,Rakaia,NZ,2022-03-16 04:46:37,-43.75,172.0167,57.83,35,100,3.0
413,Alta Floresta,BR,2022-03-16 04:46:37,-9.8756,-56.0861,70.95,98,100,2.04
414,Miraflores,MX,2022-03-16 04:46:38,19.2167,-98.8083,57.87,70,84,1.25
415,Iqaluit,CA,2022-03-16 04:46:38,63.7506,-68.5145,-7.31,63,100,9.22
416,Souillac,MU,2022-03-16 04:46:38,-20.5167,57.5167,77.38,100,75,5.75
417,Hayden,US,2022-03-16 04:46:39,47.766,-116.7866,45.16,73,75,9.22
418,Port Hedland,AU,2022-03-16 04:46:39,-20.3167,118.5667,104.05,35,26,11.5
419,High Prairie,CA,2022-03-16 04:42:19,55.4334,-116.4858,31.57,79,58,10.13
420,San Jose,US,2022-03-16 04:45:33,37.3394,-121.895,58.26,83,20,11.5
421,Trincomalee,LK,2022-03-16 04:46:40,8.5711,81.2335,82.24,65,100,1.05
422,Asyut,EG,2022-03-16 04:46:40,27.181,31.1837,42.98,54,0,9.15
423,Nova Olimpia,BR,2022-03-16 04:46:41,-14.7972,-57.2881,68.7,94,100,1.95
424,Udachnyy,RU,2022-03-16 04:46:41,66.4167,112.4,-2.56,64,95,5.7
425,Emba,KZ,2022-03-16 04:46:41,48.8264,58.1442,14.22,83,100,15.64
426,Tres Picos,MX,2022-03-16 04:46:42,15.8667,-93.5333,77.34,71,18,6.67
427,Terra Santa,BR,2022-03-16 04:46:42,-2.1042,-56.4869,70.45,99,100,2.44
428,San Policarpo,PH,2022-03-16 04:46:43,12.1791,125.5072,83.7,74,88,7.74
429,Okhotsk,RU,2022-03-16 04:46:43,59.3833,143.3,18.25,76,58,5.26
430,Mahon,ES,2022-03-16 04:46:43,39.8885,4.2658,57.76,94,100,19.57
431,Sechura,PE,2022-03-16 04:46:44,-5.5569,-80.8222,74.43,76,19,7.47
432,Semnan,IR,2022-03-16 04:46:44,35.5729,53.3971,53.44,76,40,2.3
433,Brae,GB,2022-03-16 04:46:45,60.3964,-1.353,42.55,92,100,12.64
434,Mount Isa,AU,2022-03-16 04:46:45,-20.7333,139.5,96.57,30,75,6.91
435,Tiznit,MA,2022-03-16 04:46:45,29.5833,-9.5,48.04,97,88,9.75
436,Susangerd,IR,2022-03-16 04:46:46,31.5608,48.1831,60.06,19,0,17.74
437,Gunnaur,IN,2022-03-16 04:46:46,28.25,78.4333,89.73,25,40,13.06
438,Solnechnyy,RU,2022-03-16 04:43:10,50.7214,136.6319,24.94,89,100,5.82
439,Atasu,KZ,2022-03-16 04:46:47,48.6814,71.6433,7.68,93,95,6.15
440,Lakselv,NO,2022-03-16 04:46:47,70.0513,24.9718,26.42,74,71,27.63
441,Cravo Norte,CO,2022-03-16 04:46:47,6.3017,-70.2041,81.03,49,55,4.5
442,Pontianak,ID,2022-03-16 04:46:48,-0.0333,109.3333,85.98,70,75,3.44
443,Nadvoitsy,RU,2022-03-16 04:46:48,63.8667,34.3167,25.7,93,93,5.95
444,La Libertad,EC,2022-03-16 04:46:49,-2.2333,-80.9,78.94,78,55,4.59
445,Gushikawa,JP,2022-03-16 04:46:49,26.3544,127.8686,76.62,69,0,8.05
446,Amga,RU,2022-03-16 04:46:49,60.8953,131.9608,10.58,77,99,6.98
447,Guadalupe Y Calvo,MX,2022-03-16 04:46:50,26.1,-106.9667,45.12,27,0,5.28
448,Sembakung,ID,2022-03-16 04:46:50,3.8167,117.25,86.83,74,79,3.83
449,Alofi,NU,2022-03-16 04:46:51,-19.0595,-169.9187,84.09,79,33,4.61
450,Hambantota,LK,2022-03-16 04:46:51,6.1241,81.1185,80.78,75,100,10.45
451,Gigmoto,PH,2022-03-16 04:46:51,13.7796,124.39,84.7,74,40,6.2
452,Ostrovnoy,RU,2022-03-16 04:46:52,68.0531,39.5131,29.84,88,47,16.53
453,Uray,RU,2022-03-16 04:46:52,60.1247,64.7758,10.58,91,96,6.6
454,Stromness,GB,2022-03-16 04:46:53,58.965,-3.296,39.16,79,100,18.5
455,Puerto Leguizamo,CO,2022-03-16 04:47:57,-0.1934,-74.7819,72.19,99,100,2.21
456,Pingliang,CN,2022-03-16 04:47:57,35.5392,106.6861,53.96,63,100,10.36
457,Sumenep,ID,2022-03-16 04:47:58,-7.0167,113.8667,86.5,68,38,6.17
458,Kayasula,RU,2022-03-16 04:47:58,44.325,45.0,28.31,82,100,10.36
459,Les Cayes,HT,2022-03-16 04:47:58,18.2,-73.75,76.12,78,49,4.32
460,Grootfontein,NA,2022-03-16 04:47:59,-19.5667,18.1167,54.97,82,67,0.0
461,Kuhdasht,IR,2022-03-16 04:47:59,33.535,47.6061,40.23,32,1,3.8
462,Vaitape,PF,2022-03-16 04:48:00,-16.5167,-151.75,82.18,70,60,8.77
463,Strezhevoy,RU,2022-03-16 04:48:00,60.7333,77.5889,10.85,93,97,9.8
464,Port-Gentil,GA,2022-03-16 04:48:00,-0.7193,8.7815,78.37,86,100,11.97
465,Moba,CN,2022-03-16 04:48:01,33.2288,105.0179,55.13,67,92,9.95
466,Wawa,NG,2022-03-16 04:48:02,9.9022,4.4192,80.02,42,100,3.98
467,Lahad Datu,MY,2022-03-16 04:48:02,5.0268,118.327,85.42,72,53,4.72
468,Shubarkuduk,KZ,2022-03-16 04:48:02,49.1447,56.4872,18.25,93,100,20.2
469,Gboko,NG,2022-03-16 04:48:03,7.3179,8.9951,76.87,79,93,10.16
470,Jacareacanga,BR,2022-03-16 04:48:03,-6.2222,-57.7528,71.2,99,100,1.74
471,Asfi,MA,2022-03-16 04:48:04,32.2994,-9.2372,55.38,75,30,6.15
472,Tanza,PH,2022-03-16 04:48:04,14.6753,120.9389,90.16,68,63,5.01
473,Monte Patria,CL,2022-03-16 04:48:04,-30.6919,-70.9467,68.7,62,45,2.51
474,Pisco,PE,2022-03-16 04:48:05,-13.7,-76.2167,68.05,83,0,5.75
475,Cerro Cama,PA,2022-03-16 04:48:05,9.03,-79.905,78.08,93,25,3.42
476,Save,BJ,2022-03-16 04:48:06,8.0425,2.486,78.58,80,80,4.74
477,Pochutla,MX,2022-03-16 04:48:06,15.7432,-96.4661,76.82,74,0,2.86
478,Gat,IL,2022-03-16 04:48:06,31.61,34.7642,45.39,61,90,2.82
479,Carberry,CA,2022-03-16 04:48:07,49.8689,-99.3602,30.43,99,100,3.31
480,Coxim,BR,2022-03-16 04:48:07,-18.5067,-54.76,72.48,75,95,2.59
481,Sumter,US,2022-03-16 04:48:07,28.7086,-82.0831,66.15,90,100,1.36
482,Verkhnyaya Sinyachikha,RU,2022-03-16 04:48:08,57.976,61.6673,13.84,87,62,2.3
483,Cayambe,EC,2022-03-16 04:48:08,0.05,-78.1333,49.26,92,95,1.01
484,Raahe,FI,2022-03-16 04:48:09,64.6833,24.4833,19.49,89,26,9.24
485,Sao Sebastiao,BR,2022-03-16 04:48:09,-23.76,-45.4097,74.77,94,99,3.2
486,Tukrah,LY,2022-03-16 04:48:09,32.5341,20.5791,46.09,75,0,5.41
487,Paamiut,GL,2022-03-16 04:48:10,61.994,-49.6678,5.65,91,100,4.5
488,Verkhoyansk,RU,2022-03-16 04:48:10,67.5447,133.385,1.62,76,90,4.94
489,Lianran,CN,2022-03-16 04:48:10,24.9227,102.485,68.54,25,1,17.11
490,Amapa,BR,2022-03-16 04:48:11,1.0,-52.0,70.12,100,100,1.12
491,Kumbo,CM,2022-03-16 04:48:11,6.2,10.6667,61.7,35,99,5.28
492,Horasan,TR,2022-03-16 04:48:12,40.0458,42.1728,-2.6,97,65,1.43
493,Luwuk,ID,2022-03-16 04:48:12,-0.9516,122.7875,86.23,76,62,1.61
494,Torit,SS,2022-03-16 04:48:12,4.4133,32.5678,80.26,47,100,2.68
495,Konstantinovka,RU,2022-03-16 04:48:13,49.6167,127.9833,28.99,85,100,12.41
496,Kuryk,KZ,2022-03-16 04:48:13,43.2,51.65,38.23,61,100,5.17
497,Peruibe,BR,2022-03-16 04:48:14,-24.32,-46.9983,75.04,92,99,0.47
498,Anadyr,RU,2022-03-16 04:48:14,64.75,177.4833,-4.52,76,0,8.95
499,Bakchar,RU,2022-03-16 04:49:14,57.0186,82.0711,14.31,88,100,4.43
500,Arman,RU,2022-03-16 04:49:15,59.7,150.1667,28.02,66,96,1.97
501,Arlit,NE,2022-03-16 04:49:15,18.7369,7.3853,71.6,11,11,8.08
502,San Luis De La Paz,MX,2022-03-16 04:49:16,21.3,-100.5167,48.97,84,39,6.26
503,Belmonte,BR,2022-03-16 04:49:16,-15.8631,-38.8828,76.78,85,23,3.8
504,Lagos,NG,2022-03-16 04:48:37,6.5833,3.75,80.92,85,98,3.47
505,Touho,NC,2022-03-16 04:48:12,-20.7833,165.2333,82.51,77,89,9.19
506,Aberdeen,GB,2022-03-16 04:45:37,57.1437,-2.0981,45.5,88,96,4.61
507,Bystryy Istok,RU,2022-03-16 04:49:17,52.371,84.3873,23.29,84,100,6.15
508,Hay River,CA,2022-03-16 04:49:17,60.8156,-115.7999,4.98,92,40,4.61
509,Shihezi,CN,2022-03-16 04:49:18,44.3,86.0333,37.35,97,100,3.53
510,Neiafu,TO,2022-03-16 04:49:18,-18.65,-173.9833,83.12,74,20,10.33
511,Rodrigues Alves,BR,2022-03-16 04:49:19,-7.738,-72.6509,70.56,99,96,2.59
512,Port Moresby,PG,2022-03-16 04:49:19,-9.4431,147.1797,89.02,66,75,17.27
513,Mali,GN,2022-03-16 04:49:19,12.079,-12.2982,60.13,26,74,3.27
514,Half Moon Bay,US,2022-03-16 04:47:18,37.4636,-122.4286,57.33,81,0,23.02
515,Auki,SB,2022-03-16 04:49:20,-8.7676,160.7034,83.97,68,98,1.66
516,Xuddur,SO,2022-03-16 04:49:20,4.1213,43.8894,75.97,59,71,19.53
517,El Vigia,VE,2022-03-16 04:49:21,8.6219,-71.6506,76.08,81,74,1.16
518,Bontang,ID,2022-03-16 04:49:21,0.1333,117.5,85.57,65,45,4.0
519,Kharp,RU,2022-03-16 04:49:21,66.8014,65.8081,18.1,87,100,10.67
520,La Plata,AR,2022-03-16 04:45:01,-34.9215,-57.9545,73.81,67,95,7.47
521,Gunnedah,AU,2022-03-16 04:49:22,-30.9833,150.25,85.44,29,79,7.23
522,Waingapu,ID,2022-03-16 04:49:23,-9.6567,120.2641,87.71,66,84,10.38
523,Marzuq,YE,2022-03-16 04:49:23,14.4,46.4667,68.95,26,1,5.82
524,Pasni,PK,2022-03-16 04:49:23,25.2631,63.471,79.29,64,19,6.46
525,Suksun,RU,2022-03-16 04:49:24,57.1431,57.3949,8.44,90,59,5.19
526,Agadez,NE,2022-03-16 04:49:24,19.75,10.25,63.43,16,1,4.41
527,Hovd,MN,2022-03-16 04:49:24,48.0056,91.6419,32.23,30,0,2.82
528,Vila Franca Do Campo,PT,2022-03-16 04:49:25,37.7167,-25.4333,56.19,65,62,8.25
529,Ipixuna,BR,2022-03-16 04:49:25,-1.7625,-48.8043,71.35,99,100,2.37
530,Kushmurun,KZ,2022-03-16 04:49:26,52.4503,64.6311,2.44,96,99,6.38
531,Ayan,RU,2022-03-16 04:49:26,56.45,138.1667,18.88,83,99,7.81
532,Sembe,CG,2022-03-16 04:49:26,1.6481,14.5806,68.65,99,69,2.91
533,Olaszliszka,HU,2022-03-16 04:49:27,48.25,21.4333,41.45,87,100,6.06
534,Nuevo Laredo,MX,2022-03-16 04:49:27,27.4763,-99.5164,62.87,23,0,4.61
535,Manta,EC,2022-03-16 04:49:28,-0.95,-80.7333,80.38,83,20,2.3
536,Springfield,US,2022-03-16 04:47:37,37.2153,-93.2982,54.54,86,0,1.01
537,Yaan,NG,2022-03-16 04:49:28,7.3833,8.5667,77.22,80,84,7.25
538,Qui Nhon,VN,2022-03-16 04:49:29,13.7667,109.2333,79.38,71,81,7.4
539,Novyy Urgal,RU,2022-03-16 04:49:29,51.0736,132.5642,27.25,83,100,4.99
540,Oistins,BB,2022-03-16 04:49:29,13.0667,-59.5333,77.09,73,40,20.71
541,Pyaozerskiy,RU,2022-03-16 04:49:30,65.8333,31.1667,21.9,93,25,5.46
542,Praia Da Vitoria,PT,2022-03-16 04:49:30,38.7333,-27.0667,53.85,87,20,8.55
543,Ippy,CF,2022-03-16 04:49:31,6.2679,21.2247,71.78,22,48,2.15
544,Orlik,RU,2022-03-16 04:50:31,52.5178,99.825,2.64,64,19,0.25
545,Sekoma,BW,2022-03-16 04:50:31,-24.4,23.8833,61.41,61,1,6.71
546,Marfino,RU,2022-03-16 04:50:32,55.7028,37.3822,22.95,71,0,0.0
547,Coquimbo,CL,2022-03-16 04:50:32,-29.9533,-71.3436,62.33,82,100,4.61
548,Worms,DE,2022-03-16 04:50:32,49.6356,8.3597,44.15,95,100,2.53
549,Fasa,IR,2022-03-16 04:50:33,28.9383,53.6482,51.04,62,0,0.0
550,Gimbi,ET,2022-03-16 04:50:33,9.1667,35.8333,65.28,36,66,1.52
551,Mussomeli,IT,2022-03-16 04:50:34,37.5778,13.7513,38.46,92,32,3.27
552,Svobodnyy,RU,2022-03-16 04:50:34,51.4,128.1333,24.13,91,100,14.34
553,Whitianga,NZ,2022-03-16 04:50:34,-36.8333,175.7,70.45,49,83,8.21
554,Rapid Valley,US,2022-03-16 04:50:35,44.0625,-103.1463,52.14,47,0,10.0
555,Shakhtinsk,KZ,2022-03-16 04:50:35,49.71,72.5872,5.81,92,100,0.25
556,Qasigiannguit,GL,2022-03-16 04:50:35,68.8193,-51.1922,-17.93,82,100,7.11
557,Kamenka,RU,2022-03-16 04:50:36,51.3223,42.7678,6.82,92,13,12.12
558,Soyo,AO,2022-03-16 04:50:36,-6.1349,12.3689,79.27,78,100,5.82
559,Sakakah,SA,2022-03-16 04:50:37,29.9697,40.2064,36.97,45,1,10.58
560,Bokovskaya,RU,2022-03-16 04:50:37,49.229,41.8306,10.56,92,65,11.07
561,Marawi,PH,2022-03-16 04:50:38,7.9986,124.2928,78.6,83,58,3.2
562,Banda Aceh,ID,2022-03-16 04:50:38,5.5577,95.3222,85.15,70,92,2.21
563,Kualakapuas,ID,2022-03-16 04:50:38,-3.0091,114.3876,82.67,81,98,2.57
564,Troitskoye,RU,2022-03-16 04:50:39,52.9821,84.6757,22.14,85,100,6.33
565,Sommerda,DE,2022-03-16 04:47:45,51.15,11.1,42.12,44,80,1.1
566,Santa Maria,BR,2022-03-16 04:50:39,-29.6842,-53.8069,66.52,97,90,6.49
567,Oranjemund,NA,2022-03-16 04:50:40,-28.55,16.4333,59.04,94,1,9.62
568,Awjilah,LY,2022-03-16 04:50:40,29.1081,21.2869,48.69,52,0,7.83
569,Oskaloosa,US,2022-03-16 04:48:03,41.2964,-92.6444,46.72,71,0,6.91
570,Halmstad,SE,2022-03-16 04:50:41,56.6745,12.8568,37.31,99,100,5.75
571,Isabela,PH,2022-03-16 04:50:41,6.7085,121.9711,89.65,69,42,4.25
572,Lodja,CD,2022-03-16 04:50:41,-3.4833,23.4333,69.1,98,84,1.54
573,Sterling,US,2022-03-16 04:49:39,39.0062,-77.4286,55.29,63,0,3.44
574,Kirakira,SB,2022-03-16 04:50:42,-10.4544,161.9205,82.78,74,100,5.1
575,Yuncheng,CN,2022-03-16 04:50:42,35.0231,110.9928,56.61,75,100,3.24
576,Pringsewu,ID,2022-03-16 04:50:43,-5.3582,104.9744,90.07,55,55,1.68
577,Vysokogornyy,RU,2022-03-16 04:50:43,50.1167,139.15,25.92,79,100,5.88
578,Kaeo,NZ,2022-03-16 04:50:44,-35.1,173.7833,70.32,80,100,9.42
579,Saint-Pierre,RE,2022-03-16 04:50:44,-21.3393,55.4781,83.88,75,20,8.05
580,Sept-Iles,CA,2022-03-16 04:50:44,50.2001,-66.3821,5.05,68,40,2.3
